$GPRMC,184010.00,A,4000.4833270,N,10515.7555762,W,289.45,347.21,300816,0.0,E,A*2A
$GPGGA,184010.00,4000.4833270,N,10515.7555762,W,1,04,1.0,1609.099,M,0.000,M,0.0,*5B
$GLGSA,A,3,66,79,80,81,,,,,,,,,15.0,3.4,14.6,2*3F
$GLGSV,1,1,04,66,31,096,44,79,35,209,47,80,46,291,43,81,50,031,46,1*7A
$GPRMC,184010.10,A,4000.4885806,N,10515.7578594,W,330.06,343.89,300816,0.0,E,A*2B
$GPGGA,184010.10,4000.4885806,N,10515.7578594,W,1,04,1.0,1566.681,M,0.000,M,0.0,*5D
$GLGSA,A,3,66,79,80,81,,,,,,,,,15.0,3.4,14.6,2*3F
$GLGSV,1,1,04,66,31,096,48,79,35,209,41,80,46,291,47,81,50,031,47,1*75
$GPRMC,184010.20,A,4000.4858332,N,10515.7554146,W,316.52,344.98,300816,0.0,E,A*23
$GPGGA,184010.20,4000.4858332,N,10515.7554146,W,1,04,1.0,1581.955,M,0.000,M,0.0,*58
$GLGSA,A,3,66,79,80,81,,,,,,,,,15.0,3.4,14.6,2*3F
$GLGSV,1,1,04,66,31,096,44,79,35,209,46,80,46,291,43,81,50,031,46,1*7B
$GPRMC,184010.30,A,4000.4870784,N,10515.7582384,W,243.43,345.69,300816,0.0,E,A*28
$GPGGA,184010.30,4000.4870784,N,10515.7582384,W,1,04,1.0,1559.587,M,0.000,M,0.0,*5B
$GLGSA,A,3,66,79,80,81,,,,,,,,,15.0,3.4,14.6,2*3F
$GLGSV,1,1,04,66,31,096,46,79,35,209,45,80,46,291,44,81,50,031,46,1*7D
$GPRMC,184010.40,A,4000.4796565,N,10515.7528121,W,254.10,345.17,300816,0.0,E,A*21
$GPGGA,184010.40,4000.4796565,N,10515.7528121,W,1,04,1.0,1610.412,M,0.000,M,0.0,*58
$GLGSA,A,3,66,79,80,81,,,,,,,,,15.0,3.4,14.6,2*3F
$GLGSV,1,1,04,66,31,096,43,79,35,209,44,80,46,291,46,81,50,031,47,1*7A
$GPRMC,184010.50,A,4000.4860220,N,10515.7586729,W,255.51,350.30,300816,0.0,E,A*2F
$GPGGA,184010.50,4000.4860220,N,10515.7586729,W,1,04,1.0,1574.130,M,0.000,M,0.0,*57
$GLGSA,A,3,66,79,80,81,,,,,,,,,15.0,3.4,14.6,2*3F
$GLGSV,1,1,04,66,31,096,41,79,35,209,48,80,46,291,44,81,50,031,40,1*71
$GPRMC,184010.60,A,4000.4881264,N,10515.7639838,W,294.59,345.99,300816,0.0,E,A*29
$GPGGA,184010.60,4000.4881264,N,10515.7639838,W,1,04,1.0,1557.241,M,0.000,M,0.0,*57
$GLGSA,A,3,66,79,80,81,,,,,,,,,15.0,3.4,14.6,2*3F
$GLGSV,1,1,04,66,31,096,42,79,35,209,45,80,46,291,42,81,50,031,47,1*7E
$GPRMC,184010.70,A,4000.4918612,N,10515.7665752,W,257.02,348.36,300816,0.0,E,A*2F
$GPGGA,184010.70,4000.4918612,N,10515.7665752,W,1,04,1.0,1527.858,M,0.000,M,0.0,*5D
$GLGSA,A,3,66,79,80,81,,,,,,,,,15.0,3.4,14.6,2*3F
$GLGSV,1,1,04,66,31,096,44,79,35,209,44,80,46,291,46,81,50,031,45,1*7F
$GPRMC,184010.80,A,4000.4869087,N,10515.7626702,W,240.20,349.85,300816,0.0,E,A*20
$GPGGA,184010.80,4000.4869087,N,10515.7626702,W,1,04,1.0,1573.891,M,0.000,M,0.0,*59
$GLGSA,A,3,66,79,80,81,,,,,,,,,15.0,3.4,14.6,2*3F
$GLGSV,1,1,04,66,31,096,42,79,35,209,42,80,46,291,44,81,50,031,54,1*7D
$GPRMC,184010.90,A,4000.4795255,N,10515.7566818,W,372.96,344.05,300816,0.0,E,A*2B
$GPGGA,184010.90,4000.4795255,N,10515.7566818,W,1,04,1.0,1638.497,M,0.000,M,0.0,*5C
$GLGSA,A,3,66,79,80,81,,,,,,,,,15.0,3.4,14.6,2*3F
$GLGSV,1,1,04,66,31,096,46,79,35,209,44,80,46,291,42,81,50,031,48,1*74
$GPRMC,184011.00,A,4000.4792076,N,10515.7540796,W,326.45,348.80,300816,0.0,E,A*24
$GPGGA,184011.00,4000.4792076,N,10515.7540796,W,1,04,1.0,1628.737,M,0.000,M,0.0,*55
$GLGSA,A,3,66,79,80,81,,,,,,,,,15.0,3.4,14.6,2*3F
$GLGSV,1,1,04,66,31,096,41,79,35,209,44,80,46,291,43,81,50,031,47,1*7D
$GPRMC,184011.10,A,4000.4793732,N,10515.7548208,W,292.87,345.48,300816,0.0,E,A*20
$GPGGA,184011.10,4000.4793732,N,10515.7548208,W,1,04,1.0,1628.449,M,0.000,M,0.0,*52
$GLGSA,A,3,66,79,80,81,,,,,,,,,15.0,3.4,14.6,2*3F
$GLGSV,1,1,04,66,31,096,44,79,35,209,40,80,46,291,45,81,50,031,49,1*74
$GPRMC,184011.20,A,4000.4765477,N,10515.7558397,W,303.08,347.52,300816,0.0,E,A*29
$GPGGA,184011.20,4000.4765477,N,10515.7558397,W,1,04,1.0,1640.918,M,0.000,M,0.0,*5B
$GLGSA,A,3,66,79,80,81,,,,,,,,,15.0,3.4,14.6,2*3F
$GLGSV,1,1,04,66,31,096,45,79,35,209,46,80,46,291,44,81,50,031,42,1*79
$GPRMC,184011.30,A,4000.4791554,N,10515.7559903,W,357.45,341.26,300816,0.0,E,A*28
$GPGGA,184011.30,4000.4791554,N,10515.7559903,W,1,04,1.0,1635.493,M,0.000,M,0.0,*5B
$GLGSA,A,3,66,79,80,81,,,,,,,,,15.0,3.4,14.6,2*3F
$GLGSV,1,1,04,66,31,096,48,79,35,209,44,80,46,291,41,81,50,031,50,1*70
$GPRMC,184011.40,A,4000.4787213,N,10515.7545160,W,378.77,340.79,300816,0.0,E,A*2B
$GPGGA,184011.40,4000.4787213,N,10515.7545160,W,1,04,1.0,1637.788,M,0.000,M,0.0,*54
$GLGSA,A,3,66,79,80,81,,,,,,,,,15.0,3.4,14.6,2*3F
$GLGSV,1,1,04,66,31,096,44,79,35,209,41,80,46,291,46,81,50,031,48,1*77
$GPRMC,184011.50,A,4000.4763706,N,10515.7553713,W,226.63,350.41,300816,0.0,E,A*21
$GPGGA,184011.50,4000.4763706,N,10515.7553713,W,1,04,1.0,1667.524,M,0.000,M,0.0,*5A
$GLGSA,A,3,66,79,80,81,,,,,,,,,15.0,3.4,14.6,2*3F
$GLGSV,1,1,04,66,31,096,42,79,35,209,42,80,46,291,41,81,50,031,50,1*7C
$GPRMC,184011.60,A,4000.4809524,N,10515.7562435,W,287.06,344.61,300816,0.0,E,A*29
$GPGGA,184011.60,4000.4809524,N,10515.7562435,W,1,04,1.0,1631.307,M,0.000,M,0.0,*59
$GLGSA,A,3,66,79,80,81,,,,,,,,,15.0,3.4,14.6,2*3F
$GLGSV,1,1,04,66,31,096,50,79,35,209,46,80,46,291,44,81,50,031,48,1*77
$GPRMC,184011.70,A,4000.4834705,N,10515.7554384,W,266.18,343.90,300816,0.0,E,A*26
$GPGGA,184011.70,4000.4834705,N,10515.7554384,W,1,04,1.0,1612.844,M,0.000,M,0.0,*52
$GLGSA,A,3,66,79,80,81,,,,,,,,,15.0,3.4,14.6,2*3F
$GLGSV,1,1,04,66,31,096,46,79,35,209,45,80,46,291,44,81,50,031,48,1*73
$GPRMC,184011.80,A,4000.4808896,N,10515.7532655,W,355.13,345.30,300816,0.0,E,A*2C
$GPGGA,184011.80,4000.4808896,N,10515.7532655,W,1,04,1.0,1637.091,M,0.000,M,0.0,*59
$GLGSA,A,3,66,79,80,81,,,,,,,,,15.0,3.4,14.6,2*3F
$GLGSV,1,1,04,66,31,096,44,79,35,209,47,80,46,291,44,81,50,031,48,1*73
$GPRMC,184011.90,A,4000.4768723,N,10515.7515268,W,208.86,348.72,300816,0.0,E,A*24
$GPGGA,184011.90,4000.4768723,N,10515.7515268,W,1,04,1.0,1668.823,M,0.000,M,0.0,*54
$GLGSA,A,3,66,79,80,81,,,,,,,,,15.0,3.4,14.6,2*3F
$GLGSV,1,1,04,66,31,096,46,79,35,209,42,80,46,291,48,81,50,031,46,1*76
$GPRMC,184012.00,A,4000.4789403,N,10515.7520069,W,338.79,344.29,300816,0.0,E,A*25
$GPGGA,184012.00,4000.4789403,N,10515.7520069,W,1,04,1.0,1651.411,M,0.000,M,0.0,*52
$GLGSA,A,3,66,79,80,81,,,,,,,,,15.0,3.4,14.6,2*3F
$GLGSV,1,1,04,66,31,096,46,79,35,209,45,80,46,291,44,81,50,031,48,1*73
$GPRMC,184012.10,A,4000.4766602,N,10515.7512073,W,351.32,342.92,300816,0.0,E,A*2A
$GPGGA,184012.10,4000.4766602,N,10515.7512073,W,1,04,1.0,1684.973,M,0.000,M,0.0,*5A
$GLGSA,A,3,66,79,80,81,,,,,,,,,15.0,3.4,14.6,2*3F
$GLGSV,1,1,04,66,31,096,42,79,35,209,42,80,46,291,43,81,50,031,48,1*77
$GPRMC,184012.20,A,4000.4763051,N,10515.7503406,W,309.49,344.51,300816,0.0,E,A*22
$GPGGA,184012.20,4000.4763051,N,10515.7503406,W,1,04,1.0,1692.325,M,0.000,M,0.0,*54
$GLGSA,A,3,66,79,80,81,,,,,,,,,15.0,3.4,14.6,2*3F
$GLGSV,1,1,04,66,31,096,48,79,35,209,46,80,46,291,44,81,50,031,48,1*7E
$GPRMC,184012.30,A,4000.4762922,N,10515.7511132,W,294.39,344.79,300816,0.0,E,A*26
$GPGGA,184012.30,4000.4762922,N,10515.7511132,W,1,04,1.0,1695.955,M,0.000,M,0.0,*52
$GLGSA,A,3,66,79,80,81,,,,,,,,,15.0,3.4,14.6,2*3F
$GLGSV,1,1,04,66,31,096,45,79,35,209,43,80,46,291,44,81,50,031,49,1*77
$GPRMC,184012.40,A,4000.4738777,N,10515.7480258,W,255.29,350.45,300816,0.0,E,A*20
$GPGGA,184012.40,4000.4738777,N,10515.7480258,W,1,04,1.0,1709.283,M,0.000,M,0.0,*56
$GLGSA,A,3,66,79,80,81,,,,,,,,,15.0,3.4,14.6,2*3F
$GLGSV,1,1,04,66,31,096,44,79,35,209,44,80,46,291,43,81,50,031,48,1*77
$GPRMC,184012.50,A,4000.4741688,N,10515.7497685,W,415.28,344.24,300816,0.0,E,A*2D
$GPGGA,184012.50,4000.4741688,N,10515.7497685,W,1,04,1.0,1706.117,M,0.000,M,0.0,*5B
$GLGSA,A,3,66,79,80,81,,,,,,,,,15.0,3.4,14.6,2*3F
$GLGSV,1,1,04,66,31,096,42,79,35,209,47,80,46,291,44,81,50,031,48,1*75
$GPRMC,184012.60,A,4000.4661344,N,10515.7460185,W,289.92,342.24,300816,0.0,E,A*23
$GPGGA,184012.60,4000.4661344,N,10515.7460185,W,1,04,1.0,1767.175,M,0.000,M,0.0,*52
$GLGSA,A,3,66,79,80,81,,,,,,,,,15.0,3.4,14.6,2*3F
$GLGSV,1,1,04,66,31,096,44,79,35,209,41,80,46,291,42,81,50,031,48,1*73
$GPRMC,184012.70,A,4000.4702892,N,10515.7487918,W,264.17,347.53,300816,0.0,E,A*28
$GPGGA,184012.70,4000.4702892,N,10515.7487918,W,1,04,1.0,1719.471,M,0.000,M,0.0,*5A
$GLGSA,A,3,66,79,80,81,,,,,,,,,15.0,3.4,14.6,2*3F
$GLGSV,1,1,04,66,31,096,46,79,35,209,45,80,46,291,43,81,50,031,44,1*78
$GPRMC,184012.80,A,4000.4737158,N,10515.7532839,W,306.39,344.30,300816,0.0,E,A*2C
$GPGGA,184012.80,4000.4737158,N,10515.7532839,W,1,04,1.0,1703.164,M,0.000,M,0.0,*5B
$GLGSA,A,3,66,79,80,81,,,,,,,,,15.0,3.4,14.6,2*3F
$GLGSV,1,1,04,66,31,096,46,79,35,209,46,80,46,291,38,81,50,031,51,1*73
$GPRMC,184012.90,A,4000.4727324,N,10515.7519087,W,392.42,341.25,300816,0.0,E,A*21
$GPGGA,184012.90,4000.4727324,N,10515.7519087,W,1,04,1.0,1721.139,M,0.000,M,0.0,*5E
$GLGSA,A,3,66,79,80,81,,,,,,,,,15.0,3.4,14.7,2*3E
$GLGSV,1,1,04,66,31,096,46,79,35,209,44,80,46,291,40,81,50,031,50,1*7F
$GPRMC,184013.00,A,4000.4752449,N,10515.7522633,W,313.70,344.05,300816,0.0,E,A*29
$GPGGA,184013.00,4000.4752449,N,10515.7522633,W,1,04,1.0,1697.337,M,0.000,M,0.0,*59
$GLGSA,A,3,66,79,80,81,,,,,,,,,15.0,3.4,14.7,2*3E
$GLGSV,1,1,04,66,31,096,44,79,35,209,46,80,46,291,42,81,50,031,48,1*74
$GPRMC,184013.10,A,4000.4795160,N,10515.7549745,W,395.36,344.54,300816,0.0,E,A*28
$GPGGA,184013.10,4000.4795160,N,10515.7549745,W,1,04,1.0,1689.670,M,0.000,M,0.0,*59
$GLGSA,A,3,66,79,80,81,,,,,,,,,15.0,3.4,14.7,2*3E
$GLGSV,1,1,04,66,31,096,46,79,35,209,42,80,46,291,46,81,50,031,50,1*7F
$GPRMC,184013.20,A,4000.4814025,N,10515.7561028,W,248.68,343.50,300816,0.0,E,A*22
$GPGGA,184013.20,4000.4814025,N,10515.7561028,W,1,04,1.0,1676.018,M,0.000,M,0.0,*52
$GLGSA,A,3,66,79,80,81,,,,,,,,,15.0,3.4,14.7,2*3E
$GLGSV,1,1,04,66,31,096,41,79,35,209,47,80,46,291,41,81,50,031,46,1*7D
$GPRMC,184013.30,A,4000.4880519,N,10515.7598488,W,220.08,341.00,300816,0.0,E,A*23
$GPGGA,184013.30,4000.4880519,N,10515.7598488,W,1,04,1.0,1641.071,M,0.000,M,0.0,*57
$GLGSA,A,3,66,79,80,81,,,,,,,,,15.0,3.4,14.7,2*3E
$GLGSV,1,1,04,66,31,096,48,79,35,209,40,80,46,291,45,81,50,031,50,1*70
$GPRMC,184013.40,A,4000.4849869,N,10515.7572664,W,326.27,346.15,300816,0.0,E,A*26
$GPGGA,184013.40,4000.4849869,N,10515.7572664,W,1,04,1.0,1654.669,M,0.000,M,0.0,*50
$GLGSA,A,3,66,79,80,81,,,,,,,,,15.0,3.4,14.7,2*3E
$GLGSV,1,1,04,66,31,096,46,79,35,209,45,80,46,291,44,81,50,031,47,1*7C
$GPRMC,184013.50,A,4000.4806890,N,10515.7551547,W,327.67,342.50,300816,0.0,E,A*29
$GPGGA,184013.50,4000.4806890,N,10515.7551547,W,1,04,1.0,1684.137,M,0.000,M,0.0,*5E
$GLGSA,A,3,66,79,80,81,,,,,,,,,15.0,3.4,14.7,2*3E
$GLGSV,1,1,04,66,31,096,48,79,35,209,44,80,46,291,44,81,50,031,48,1*7C
$GPRMC,184013.60,A,4000.4780137,N,10515.7536330,W,344.00,346.60,300816,0.0,E,A*2B
$GPGGA,184013.60,4000.4780137,N,10515.7536330,W,1,04,1.0,1688.618,M,0.000,M,0.0,*59
$GLGSA,A,3,66,79,80,81,,,,,,,,,15.0,3.4,14.7,2*3E
$GLGSV,1,1,04,66,31,096,47,79,35,209,45,80,46,291,40,81,50,031,48,1*76
$GPRMC,184013.70,A,4000.4801142,N,10515.7533174,W,307.34,348.65,300816,0.0,E,A*22
$GPGGA,184013.70,4000.4801142,N,10515.7533174,W,1,04,1.0,1668.687,M,0.000,M,0.0,*53
$GLGSA,A,3,66,79,80,81,,,,,,,,,15.0,3.4,14.7,2*3E
$GLGSV,1,1,04,66,31,096,45,79,35,209,46,80,46,291,45,81,50,031,45,1*7F
$GPRMC,184013.80,A,4000.4784702,N,10515.7549650,W,277.67,344.61,300816,0.0,E,A*29
$GPGGA,184013.80,4000.4784702,N,10515.7549650,W,1,04,1.0,1680.565,M,0.000,M,0.0,*59
$GLGSA,A,3,66,79,80,81,,,,,,,,,15.1,3.4,14.7,2*3F
$GLGSV,1,1,04,66,31,096,46,79,35,209,44,80,46,291,44,81,50,031,49,1*73
$GPRMC,184013.90,A,4000.4752357,N,10515.7525226,W,337.06,344.46,300816,0.0,E,A*2F
$GPGGA,184013.90,4000.4752357,N,10515.7525226,W,1,04,1.0,1706.787,M,0.000,M,0.0,*59
$GLGSA,A,3,66,79,80,81,,,,,,,,,15.1,3.4,14.7,2*3F
$GLGSV,1,1,04,66,31,096,44,79,35,209,47,80,46,291,41,81,50,031,49,1*77
$GPRMC,184014.00,A,4000.4806777,N,10515.7534508,W,359.36,343.77,300816,0.0,E,A*2C
$GPGGA,184014.00,4000.4806777,N,10515.7534508,W,1,04,1.0,1664.833,M,0.000,M,0.0,*51
$GLGSA,A,3,66,79,80,81,,,,,,,,,15.1,3.4,14.7,2*3F
$GLGSV,1,1,04,66,31,096,45,79,35,209,46,80,46,291,42,81,50,031,43,1*7E
$GPRMC,184014.10,A,4000.4770389,N,10515.7513390,W,306.20,347.70,300816,0.0,E,A*2A
$GPGGA,184014.10,4000.4770389,N,10515.7513390,W,1,04,1.0,1691.337,M,0.000,M,0.0,*5C
$GLGSA,A,3,66,79,80,81,,,,,,,,,15.1,3.4,14.7,2*3F
$GLGSV,1,1,04,66,31,096,42,79,35,209,48,80,46,291,44,81,50,031,48,1*7A
$GPRMC,184014.20,A,4000.4763830,N,10515.7518235,W,224.92,348.94,300816,0.0,E,A*2A
$GPGGA,184014.20,4000.4763830,N,10515.7518235,W,1,04,1.0,1688.995,M,0.000,M,0.0,*5B
$GLGSA,A,3,66,79,80,81,,,,,,,,,15.1,3.4,14.7,2*3F
$GLGSV,1,1,04,66,31,096,48,79,35,209,45,80,46,291,42,81,50,031,43,1*70
$GPRMC,184014.30,A,4000.4779495,N,10515.7523093,W,283.51,344.66,300816,0.0,E,A*26
$GPGGA,184014.30,4000.4779495,N,10515.7523093,W,1,04,1.0,1674.639,M,0.000,M,0.0,*5E
$GLGSA,A,3,66,79,80,81,,,,,,,,,15.1,3.4,14.7,2*3F
$GLGSV,1,1,04,66,31,096,43,79,35,209,48,80,46,291,40,81,50,031,46,1*71
$GPRMC,184014.40,A,4000.4770556,N,10515.7518078,W,345.50,342.03,300816,0.0,E,A*24
$GPGGA,184014.40,4000.4770556,N,10515.7518078,W,1,04,1.0,1681.726,M,0.000,M,0.0,*56
$GLGSA,A,3,66,79,80,81,,,,,,,,,15.1,3.4,14.7,2*3F
$GLGSV,1,1,04,66,31,096,44,79,35,209,42,80,46,291,44,81,50,031,44,1*7A
$GPRMC,184014.50,A,4000.4756246,N,10515.7513435,W,234.56,345.58,300816,0.0,E,A*29
$GPGGA,184014.50,4000.4756246,N,10515.7513435,W,1,04,1.0,1681.138,M,0.000,M,0.0,*5A
$GLGSA,A,3,66,79,80,81,,,,,,,,,15.1,3.4,14.7,2*3F
$GLGSV,1,1,04,66,31,096,46,79,35,209,45,80,46,291,42,81,50,031,40,1*7D
$GPRMC,184014.60,A,4000.4805262,N,10515.7526199,W,243.58,345.68,300816,0.0,E,A*2D
$GPGGA,184014.60,4000.4805262,N,10515.7526199,W,1,04,1.0,1662.678,M,0.000,M,0.0,*5D
$GLGSA,A,3,66,79,80,81,,,,,,,,,15.1,3.4,14.7,2*3F
$GLGSV,1,1,04,66,31,096,44,79,35,209,46,80,46,291,45,81,50,031,48,1*73
$GPRMC,184014.70,A,4000.4800589,N,10515.7519545,W,331.10,341.54,300816,0.0,E,A*21
$GPGGA,184014.70,4000.4800589,N,10515.7519545,W,1,04,1.0,1681.162,M,0.000,M,0.0,*53
$GLGSA,A,3,66,79,80,81,,,,,,,,,15.1,3.4,14.7,2*3F
$GLGSV,1,1,04,66,31,096,44,79,35,209,44,80,46,291,44,81,50,031,45,1*7D
$GPRMC,184014.80,A,4000.4813922,N,10515.7558031,W,304.55,347.33,300816,0.0,E,A*22
$GPGGA,184014.80,4000.4813922,N,10515.7558031,W,1,04,1.0,1669.303,M,0.000,M,0.0,*53
$GLGSA,A,3,66,79,80,81,,,,,,,,,15.1,3.4,14.7,2*3F
$GLGSV,1,1,04,66,31,096,48,79,35,209,47,80,46,291,45,81,50,031,50,1*77
$GPRMC,184014.90,A,4000.4829927,N,10515.7570289,W,272.05,344.81,300816,0.0,E,A*2B
$GPGGA,184014.90,4000.4829927,N,10515.7570289,W,1,04,1.0,1670.521,M,0.000,M,0.0,*5B
$GLGSA,A,3,66,79,80,81,,,,,,,,,15.1,3.4,14.7,2*3F
$GLGSV,1,1,04,66,31,096,46,79,35,209,46,80,46,291,42,81,50,031,44,1*7A
$GPRMC,184015.00,A,4000.4807057,N,10515.7563041,W,287.32,346.20,300816,0.0,E,A*22
$GPGGA,184015.00,4000.4807057,N,10515.7563041,W,1,04,1.0,1692.587,M,0.000,M,0.0,*55
$GLGSA,A,3,66,79,80,81,,,,,,,,,15.1,3.4,14.7,2*3F
$GLGSV,1,1,04,66,31,096,46,79,35,209,45,80,46,291,40,81,50,031,48,1*77
$GPRMC,184015.10,A,4000.4794487,N,10515.7541248,W,267.87,343.75,300816,0.0,E,A*21
$GPGGA,184015.10,4000.4794487,N,10515.7541248,W,1,04,1.0,1697.303,M,0.000,M,0.0,*5C
$GLGSA,A,3,66,79,80,81,,,,,,,,,15.1,3.4,14.7,2*3F
$GLGSV,1,1,04,66,31,096,49,79,35,209,46,80,46,291,45,81,50,031,50,1*77
$GPRMC,184015.20,A,4000.4832971,N,10515.7591464,W,339.47,343.75,300816,0.0,E,A*26
$GPGGA,184015.20,4000.4832971,N,10515.7591464,W,1,04,1.0,1659.965,M,0.000,M,0.0,*55
$GLGSA,A,3,66,79,80,81,,,,,,,,,15.1,3.4,14.7,2*3F
$GLGSV,1,1,04,66,31,096,46,79,35,209,46,80,46,291,41,81,50,031,48,1*75
$GPRMC,184015.30,A,4000.4796700,N,10515.7555773,W,227.71,344.17,300816,0.0,E,A*2B
$GPGGA,184015.30,4000.4796700,N,10515.7555773,W,1,04,1.0,1684.569,M,0.000,M,0.0,*50
$GLGSA,A,3,66,79,80,81,,,,,,,,,15.1,3.4,14.7,2*3F
$GLGSV,1,1,04,66,31,096,40,79,35,209,41,80,46,291,43,81,50,031,46,1*78
$GPRMC,184015.40,A,4000.4783941,N,10515.7557437,W,314.85,345.44,300816,0.0,E,A*2F
$GPGGA,184015.40,4000.4783941,N,10515.7557437,W,1,04,1.0,1698.953,M,0.000,M,0.0,*51
$GLGSA,A,3,66,79,80,81,,,,,,,,,15.1,3.4,14.7,2*3F
$GLGSV,1,1,04,66,31,096,46,79,35,209,44,80,46,291,40,81,50,031,46,1*78
$GPRMC,184015.50,A,4000.4710619,N,10515.7519621,W,383.76,342.15,300816,0.0,E,A*28
$GPGGA,184015.50,4000.4710619,N,10515.7519621,W,1,04,1.0,1765.138,M,0.000,M,0.0,*51
$GLGSA,A,3,66,79,80,81,,,,,,,,,15.1,3.4,14.7,2*3F
$GLGSV,1,1,04,66,31,096,42,79,35,209,47,80,46,291,41,81,50,031,44,1*7C
$GPRMC,184015.60,A,4000.4740262,N,10515.7532195,W,290.52,346.00,300816,0.0,E,A*22
$GPGGA,184015.60,4000.4740262,N,10515.7532195,W,1,04,1.0,1740.630,M,0.000,M,0.0,*56
$GLGSA,A,3,66,79,80,81,,,,,,,,,15.1,3.4,14.7,2*3F
$GLGSV,1,1,04,66,31,096,48,79,35,209,46,80,46,291,45,81,50,031,51,1*77
$GPRMC,184015.70,A,4000.4782173,N,10515.7563538,W,318.25,345.41,300816,0.0,E,A*2E
$GPGGA,184015.70,4000.4782173,N,10515.7563538,W,1,04,1.0,1697.155,M,0.000,M,0.0,*52
$GLGSA,A,3,66,79,80,81,,,,,,,,,15.1,3.4,14.7,2*3F
$GLGSV,1,1,04,66,31,096,46,79,35,209,46,80,46,291,42,81,50,031,47,1*79
$GPRMC,184015.80,A,4000.4798414,N,10515.7557133,W,305.13,341.78,300816,0.0,E,A*21
$GPGGA,184015.80,4000.4798414,N,10515.7557133,W,1,04,1.0,1682.492,M,0.000,M,0.0,*50
$GLGSA,A,3,66,79,80,81,,,,,,,,,15.1,3.4,14.7,2*3F
$GLGSV,1,1,04,66,31,096,46,79,35,209,48,80,46,291,42,81,50,031,50,1*71
$GPRMC,184015.90,A,4000.4796069,N,10515.7549448,W,279.77,344.69,300816,0.0,E,A*2B
$GPGGA,184015.90,4000.4796069,N,10515.7549448,W,1,04,1.0,1696.076,M,0.000,M,0.0,*5C
$GLGSA,A,3,66,79,80,81,,,,,,,,,15.1,3.4,14.7,2*3F
$GLGSV,1,1,04,66,31,096,45,79,35,209,44,80,46,291,41,81,50,031,48,1*74
$GPRMC,184016.00,A,4000.4775865,N,10515.7545269,W,223.81,347.80,300816,0.0,E,A*23
$GPGGA,184016.00,4000.4775865,N,10515.7545269,W,1,04,1.0,1721.053,M,0.000,M,0.0,*5C
$GLGSA,A,3,66,79,80,81,,,,,,,,,15.1,3.4,14.7,2*3F
$GLGSV,1,1,04,66,31,096,44,79,35,209,42,80,46,291,44,81,50,031,48,1*76
$GPRMC,184016.10,A,4000.4773213,N,10515.7528224,W,341.85,343.41,300816,0.0,E,A*25
$GPGGA,184016.10,4000.4773213,N,10515.7528224,W,1,04,1.0,1716.861,M,0.000,M,0.0,*5F
$GLGSA,A,3,66,79,80,81,,,,,,,,,15.1,3.4,14.7,2*3F
$GLGSV,1,1,04,66,31,096,46,79,35,209,46,80,46,291,44,81,50,031,48,1*70
$GPRMC,184016.20,A,4000.4807922,N,10515.7570610,W,331.38,342.67,300816,0.0,E,A*29
$GPGGA,184016.20,4000.4807922,N,10515.7570610,W,1,04,1.0,1692.323,M,0.000,M,0.0,*57
$GLGSA,A,3,66,79,80,81,,,,,,,,,15.1,3.4,14.7,2*3F
$GLGSV,1,1,04,66,31,096,48,79,35,209,44,80,46,291,45,81,50,031,47,1*72
$GPRMC,184016.30,A,4000.4815593,N,10515.7583412,W,307.30,346.23,300816,0.0,E,A*28
$GPGGA,184016.30,4000.4815593,N,10515.7583412,W,1,04,1.0,1673.536,M,0.000,M,0.0,*52
$GLGSA,A,3,66,79,80,81,,,,,,,,,15.1,3.4,14.7,2*3F
$GLGSV,1,1,04,66,31,096,48,79,35,209,44,80,46,291,43,81,50,031,46,1*75
$GPRMC,184016.40,A,4000.4798499,N,10515.7585336,W,225.70,350.10,300816,0.0,E,A*2B
$GPGGA,184016.40,4000.4798499,N,10515.7585336,W,1,04,1.0,1688.168,M,0.000,M,0.0,*58
$GLGSA,A,3,66,79,80,81,,,,,,,,,15.1,3.4,14.7,2*3F
$GLGSV,1,1,04,66,31,096,47,79,35,209,44,80,46,291,42,81,50,031,48,1*75
$GPRMC,184016.50,A,4000.4744849,N,10515.7553288,W,357.40,344.06,300816,0.0,E,A*20
$GPGGA,184016.50,4000.4744849,N,10515.7553288,W,1,04,1.0,1708.424,M,0.000,M,0.0,*52
$GLGSA,A,3,66,79,80,81,,,,,,,,,15.1,3.4,14.7,2*3F
$GLGSV,1,1,04,66,31,096,46,79,35,209,50,80,46,291,40,81,50,031,46,1*7D
$GPRMC,184016.60,A,4000.4769234,N,10515.7571494,W,296.31,346.33,300816,0.0,E,A*29
$GPGGA,184016.60,4000.4769234,N,10515.7571494,W,1,04,1.0,1698.371,M,0.000,M,0.0,*5A
$GLGSA,A,3,66,79,80,81,,,,,,,,,15.1,3.4,14.7,2*3F
$GLGSV,1,1,04,66,31,096,47,79,35,209,48,80,46,291,43,81,50,031,47,1*77
$GPRMC,184016.70,A,4000.4785831,N,10515.7604503,W,292.13,340.66,300816,0.0,E,A*29
$GPGGA,184016.70,4000.4785831,N,10515.7604503,W,1,04,1.0,1699.183,M,0.000,M,0.0,*56
$GLGSA,A,3,66,79,80,81,,,,,,,,,15.1,3.4,14.7,2*3F
$GLGSV,1,1,04,66,31,096,46,79,35,209,48,80,46,291,45,81,50,031,46,1*71
$GPRMC,184016.80,A,4000.4779568,N,10515.7595575,W,378.09,346.40,300816,0.0,E,A*22
$GPGGA,184016.80,4000.4779568,N,10515.7595575,W,1,04,1.0,1703.205,M,0.000,M,0.0,*5E
$GLGSA,A,3,66,79,80,81,,,,,,,,,15.1,3.4,14.7,2*3F
$GLGSV,1,1,04,66,31,096,44,79,35,209,44,80,46,291,45,81,50,031,45,1*7C
$GPRMC,184016.90,A,4000.4768789,N,10515.7567397,W,315.69,345.49,300816,0.0,E,A*2E
$GPGGA,184016.90,4000.4768789,N,10515.7567397,W,1,04,1.0,1718.523,M,0.000,M,0.0,*5C
$GLGSA,A,3,66,79,80,81,,,,,,,,,15.1,3.4,14.7,2*3F
$GLGSV,1,1,04,66,31,096,42,79,35,209,43,80,46,291,43,81,50,031,48,1*76
$GPRMC,184017.00,A,4000.4815948,N,10515.7569111,W,235.02,359.91,300816,0.0,E,A*24
$GPGGA,184017.00,4000.4815948,N,10515.7569111,W,1,04,1.0,1683.687,M,0.000,M,0.0,*5E
$GLGSA,A,3,66,79,80,81,,,,,,,,,15.1,3.4,14.7,2*3F
$GLGSV,1,1,04,66,31,096,40,79,35,209,44,80,46,291,40,81,50,031,49,1*71
$GPRMC,184017.10,A,4000.4729132,N,10515.7528931,W,306.93,345.12,300816,0.0,E,A*20
$GPGGA,184017.10,4000.4729132,N,10515.7528931,W,1,04,1.0,1768.458,M,0.000,M,0.0,*51
$GLGSA,A,3,66,79,80,81,,,,,,,,,15.1,3.4,14.7,2*3F
$GLGSV,1,1,04,66,31,096,46,79,35,209,46,80,46,291,42,81,50,031,47,1*79
$GPRMC,184017.20,A,4000.4683624,N,10515.7512362,W,259.35,347.77,300816,0.0,E,A*21
$GPGGA,184017.20,4000.4683624,N,10515.7512362,W,1,04,1.0,1803.579,M,0.000,M,0.0,*56
$GLGSA,A,3,66,79,80,81,,,,,,,,,15.1,3.4,14.7,2*3F
$GLGSV,1,1,04,66,31,096,44,79,35,209,46,80,46,291,43,81,50,031,50,1*7C
$GPRMC,184017.30,A,4000.4705854,N,10515.7532471,W,298.19,349.01,300816,0.0,E,A*2D
$GPGGA,184017.30,4000.4705854,N,10515.7532471,W,1,04,1.0,1781.775,M,0.000,M,0.0,*5D
$GLGSA,A,3,66,79,80,81,,,,,,,,,15.1,3.4,14.7,2*3F
$GLGSV,1,1,04,66,31,096,45,79,35,209,48,80,46,291,43,81,50,031,46,1*74
$GPRMC,184017.40,A,4000.4749779,N,10515.7561754,W,361.22,344.10,300816,0.0,E,A*22
$GPGGA,184017.40,4000.4749779,N,10515.7561754,W,1,04,1.0,1745.915,M,0.000,M,0.0,*50
$GLGSA,A,3,66,79,80,81,,,,,,,,,15.1,3.4,14.7,2*3F
$GLGSV,1,1,04,66,31,096,44,79,35,209,45,80,46,291,44,81,50,031,43,1*7A
$GPRMC,184017.50,A,4000.4741820,N,10515.7569540,W,278.79,344.25,300816,0.0,E,A*26
$GPGGA,184017.50,4000.4741820,N,10515.7569540,W,1,04,1.0,1742.917,M,0.000,M,0.0,*50
$GLGSA,A,3,66,79,80,81,,,,,,,,,15.1,3.4,14.7,2*3F
$GLGSV,1,1,04,66,31,096,43,79,35,209,44,80,46,291,40,81,50,031,50,1*7A
$GPRMC,184017.60,A,4000.4769226,N,10515.7561710,W,174.47,356.17,300816,0.0,E,A*2C
$GPGGA,184017.60,4000.4769226,N,10515.7561710,W,1,04,1.0,1710.746,M,0.000,M,0.0,*57
$GLGSA,A,3,66,79,80,81,,,,,,,,,15.1,3.4,14.8,2*30
$GLGSV,1,1,04,66,31,096,47,79,35,209,45,80,46,291,40,81,50,031,46,1*78
$GPRMC,184017.70,A,4000.4799582,N,10515.7580427,W,363.56,342.13,300816,0.0,E,A*26
$GPGGA,184017.70,4000.4799582,N,10515.7580427,W,1,04,1.0,1679.676,M,0.000,M,0.0,*54
$GLGSA,A,3,66,79,80,81,,,,,,,,,15.1,3.4,14.8,2*30
$GLGSV,1,1,04,66,31,096,46,79,35,209,44,80,46,291,40,81,50,031,48,1*76
$GPRMC,184017.80,A,4000.4809456,N,10515.7587095,W,301.07,342.18,300816,0.0,E,A*26
$GPGGA,184017.80,4000.4809456,N,10515.7587095,W,1,04,1.0,1657.223,M,0.000,M,0.0,*57
$GLGSA,A,3,66,79,80,81,,,,,,,,,15.1,3.4,14.8,2*30
$GLGSV,1,1,04,66,31,096,45,79,35,209,49,80,46,291,43,81,50,031,48,1*7B
$GPRMC,184017.90,A,4000.4833390,N,10515.7606833,W,317.56,345.45,300816,0.0,E,A*21
$GPGGA,184017.90,4000.4833390,N,10515.7606833,W,1,04,1.0,1643.140,M,0.000,M,0.0,*5F
$GLGSA,A,3,66,79,80,81,,,,,,,,,15.1,3.4,14.8,2*30
$GLGSV,1,1,04,66,31,096,46,79,35,209,44,80,46,291,45,81,50,031,49,1*72
$GPRMC,184018.00,A,4000.4788551,N,10515.7576225,W,316.80,348.99,300816,0.0,E,A*2C
$GPGGA,184018.00,4000.4788551,N,10515.7576225,W,1,04,1.0,1679.855,M,0.000,M,0.0,*50
$GLGSA,A,3,66,79,80,81,,,,,,,,,15.1,3.4,14.8,2*30
$GLGSV,1,1,04,66,31,096,42,79,35,209,46,80,46,291,48,81,50,031,44,1*74
$GPRMC,184018.10,A,4000.4826668,N,10515.7598477,W,381.36,341.57,300816,0.0,E,A*26
$GPGGA,184018.10,4000.4826668,N,10515.7598477,W,1,04,1.0,1651.612,M,0.000,M,0.0,*55
$GLGSA,A,3,66,79,80,81,,,,,,,,,15.1,3.4,14.8,2*30
$GLGSV,1,1,04,66,31,096,50,79,35,209,46,80,46,291,42,81,50,031,46,1*7F
$GPRMC,184018.20,A,4000.4821230,N,10515.7585879,W,325.58,343.93,300816,0.0,E,A*29
$GPGGA,184018.20,4000.4821230,N,10515.7585879,W,1,04,1.0,1676.133,M,0.000,M,0.0,*57
$GLGSA,A,3,66,79,80,81,,,,,,,,,15.1,3.4,14.8,2*30
$GLGSV,1,1,04,66,31,096,43,79,35,209,44,80,46,291,46,81,50,031,45,1*78
$GPRMC,184018.30,A,4000.4810605,N,10515.7560042,W,266.55,345.74,300816,0.0,E,A*27
$GPGGA,184018.30,4000.4810605,N,10515.7560042,W,1,04,1.0,1681.843,M,0.000,M,0.0,*5B
$GLGSA,A,3,66,79,80,81,,,,,,,,,15.2,3.4,14.8,2*33
$GLGSV,1,1,04,66,31,096,45,79,35,209,47,80,46,291,44,81,50,031,48,1*72
$GPRMC,184018.40,A,4000.4845468,N,10515.7590351,W,246.17,351.89,300816,0.0,E,A*24
$GPGGA,184018.40,4000.4845468,N,10515.7590351,W,1,04,1.0,1635.606,M,0.000,M,0.0,*5B
$GLGSA,A,3,66,79,80,81,,,,,,,,,15.2,3.4,14.8,2*33
$GLGSV,1,1,04,66,31,096,45,79,35,209,44,80,46,291,43,81,50,031,47,1*79
$GPRMC,184018.50,A,4000.4794507,N,10515.7551043,W,399.71,342.33,300816,0.0,E,A*23
$GPGGA,184018.50,4000.4794507,N,10515.7551043,W,1,04,1.0,1676.177,M,0.000,M,0.0,*5A
$GLGSA,A,3,66,79,80,81,,,,,,,,,15.2,3.4,14.8,2*33
$GLGSV,1,1,04,66,31,096,46,79,35,209,50,80,46,291,41,81,50,031,44,1*7E
$GPRMC,184018.60,A,4000.4746768,N,10515.7528300,W,308.13,345.64,300816,0.0,E,A*27
$GPGGA,184018.60,4000.4746768,N,10515.7528300,W,1,04,1.0,1711.705,M,0.000,M,0.0,*54
$GLGSA,A,3,66,79,80,81,,,,,,,,,15.2,3.4,14.8,2*33
$GLGSV,1,1,04,66,31,096,44,79,35,209,42,80,46,291,42,81,50,031,48,1*70
$GPRMC,184018.70,A,4000.4779311,N,10515.7555829,W,332.92,345.61,300816,0.0,E,A*2F
$GPGGA,184018.70,4000.4779311,N,10515.7555829,W,1,04,1.0,1696.847,M,0.000,M,0.0,*5E
$GLGSA,A,3,66,79,80,81,,,,,,,,,15.2,3.4,14.8,2*33
$GLGSV,1,1,04,66,31,096,48,79,35,209,43,80,46,291,44,81,50,031,49,1*7A
$GPRMC,184018.80,A,4000.4770267,N,10515.7552953,W,295.14,343.80,300816,0.0,E,A*29
$GPGGA,184018.80,4000.4770267,N,10515.7552953,W,1,04,1.0,1710.521,M,0.000,M,0.0,*51
$GLGSA,A,3,66,79,80,81,,,,,,,,,15.2,3.4,14.8,2*33
$GLGSV,1,1,04,66,31,096,47,79,35,209,43,80,46,291,41,81,50,031,46,1*7F
$GPRMC,184018.90,A,4000.4745178,N,10515.7561458,W,356.18,344.38,300816,0.0,E,A*23
$GPGGA,184018.90,4000.4745178,N,10515.7561458,W,1,04,1.0,1721.395,M,0.000,M,0.0,*56
$GLGSA,A,3,66,79,80,81,,,,,,,,,15.2,3.4,14.8,2*33
$GLGSV,1,1,04,66,31,096,46,79,35,209,44,80,46,291,42,81,50,031,50,1*7D
$GPRMC,184019.00,A,4000.4743894,N,10515.7573725,W,395.02,345.12,300816,0.0,E,A*21
$GPGGA,184019.00,4000.4743894,N,10515.7573725,W,1,04,1.0,1722.066,M,0.000,M,0.0,*55
$GLGSA,A,3,66,79,80,81,,,,,,,,,15.2,3.4,14.8,2*33
$GLGSV,1,1,04,66,31,096,41,79,35,209,47,80,46,291,44,81,50,031,50,1*7F
$GPRMC,184019.10,A,4000.4717429,N,10515.7521411,W,291.14,348.18,300816,0.0,E,A*2D
$GPGGA,184019.10,4000.4717429,N,10515.7521411,W,1,04,1.0,1743.893,M,0.000,M,0.0,*59
$GLGSA,A,3,66,79,80,81,,,,,,,,,15.2,3.4,14.8,2*33
$GLGSV,1,1,04,66,31,096,49,79,35,209,44,80,46,291,44,81,50,031,44,1*71
$GPRMC,184019.20,A,4000.4744492,N,10515.7542919,W,290.15,349.77,300816,0.0,E,A*20
$GPGGA,184019.20,4000.4744492,N,10515.7542919,W,1,04,1.0,1728.093,M,0.000,M,0.0,*59
$GLGSA,A,3,66,79,80,81,,,,,,,,,15.2,3.4,14.8,2*33
$GLGSV,1,1,04,66,31,096,47,79,35,209,40,80,46,291,40,81,50,031,48,1*73
$GPRMC,184019.30,A,4000.4769146,N,10515.7553819,W,319.46,345.95,300816,0.0,E,A*25
$GPGGA,184019.30,4000.4769146,N,10515.7553819,W,1,04,1.0,1707.827,M,0.000,M,0.0,*50
$GLGSA,A,3,66,79,80,81,,,,,,,,,15.2,3.4,14.8,2*33
$GLGSV,1,1,04,66,31,096,44,79,35,209,44,80,46,291,40,81,50,031,48,1*74
$GPRMC,184019.40,A,4000.4743515,N,10515.7535861,W,291.81,345.03,300816,0.0,E,A*22
$GPGGA,184019.40,4000.4743515,N,10515.7535861,W,1,04,1.0,1717.988,M,0.000,M,0.0,*57
$GLGSA,A,3,66,79,80,81,,,,,,,,,15.2,3.4,14.8,2*33
$GLGSV,1,1,04,66,31,096,45,79,35,209,46,80,46,291,44,81,50,031,46,1*7D
$GPRMC,184019.50,A,4000.4804071,N,10515.7571177,W,293.40,343.79,300816,0.0,E,A*22
$GPGGA,184019.50,4000.4804071,N,10515.7571177,W,1,04,1.0,1663.039,M,0.000,M,0.0,*52
$GLGSA,A,3,66,79,80,81,,,,,,,,,15.2,3.4,14.8,2*33
$GLGSV,1,1,04,66,31,096,46,79,35,209,45,80,46,291,45,81,50,031,48,1*72
$GPRMC,184019.60,A,4000.4812703,N,10515.7578925,W,219.06,350.23,300816,0.0,E,A*2F
$GPGGA,184019.60,4000.4812703,N,10515.7578925,W,1,04,1.0,1656.351,M,0.000,M,0.0,*59
$GLGSA,A,3,66,79,80,81,,,,,,,,,15.2,3.4,14.8,2*33
$GLGSV,1,1,04,66,31,096,48,79,35,209,44,80,46,291,46,81,50,031,45,1*73
$GPRMC,184019.70,A,4000.4918136,N,10515.7646572,W,258.13,344.99,300816,0.0,E,A*20
$GPGGA,184019.70,4000.4918136,N,10515.7646572,W,1,04,1.0,1558.377,M,0.000,M,0.0,*5A
$GLGSA,A,3,66,79,80,81,,,,,,,,,15.2,3.4,14.8,2*33
$GLGSV,1,1,04,66,31,096,44,79,35,209,46,80,46,291,43,81,50,031,47,1*7A
$GPRMC,184019.80,A,4000.4928979,N,10515.7656429,W,278.03,344.89,300816,0.0,E,A*23
$GPGGA,184019.80,4000.4928979,N,10515.7656429,W,1,04,1.0,1556.659,M,0.000,M,0.0,*5C
$GLGSA,A,3,66,79,80,81,,,,,,,,,15.2,3.4,14.8,2*33
$GLGSV,1,1,04,66,31,096,44,79,35,209,45,80,46,291,42,81,50,031,49,1*76
$GPRMC,184019.90,A,4000.4939639,N,10515.7656029,W,214.09,350.05,300816,0.0,E,A*2C
$GPGGA,184019.90,4000.4939639,N,10515.7656029,W,1,04,1.0,1552.089,M,0.000,M,0.0,*5D
$GLGSA,A,3,66,79,80,81,,,,,,,,,15.2,3.4,14.8,2*33
$GLGSV,1,1,04,66,31,096,47,79,35,209,44,80,46,291,42,81,50,031,47,1*7A
$GPRMC,184020.00,A,4000.4937955,N,10515.7663599,W,406.61,341.21,300816,0.0,E,A*21
$GPGGA,184020.00,4000.4937955,N,10515.7663599,W,1,04,1.0,1563.122,M,0.000,M,0.0,*5F
$GLGSA,A,3,66,79,80,81,,,,,,,,,15.2,3.4,14.8,2*33
$GLGSV,1,1,04,66,31,096,42,79,35,209,46,80,46,291,39,81,50,031,48,1*7E
$GPRMC,184020.10,A,4000.4926034,N,10515.7659994,W,342.64,345.14,300816,0.0,E,A*26
$GPGGA,184020.10,4000.4926034,N,10515.7659994,W,1,04,1.0,1561.969,M,0.000,M,0.0,*5D
$GLGSA,A,3,66,79,80,81,,,,,,,,,15.2,3.4,14.8,2*33
$GLGSV,1,1,04,66,31,096,43,79,35,209,43,80,46,291,45,81,50,031,46,1*7F
$GPRMC,184020.20,A,4000.4863954,N,10515.7611148,W,368.41,344.75,300816,0.0,E,A*26
$GPGGA,184020.20,4000.4863954,N,10515.7611148,W,1,04,1.0,1612.786,M,0.000,M,0.0,*5C
$GLGSA,A,3,66,79,80,81,,,,,,,,,15.2,3.4,14.8,2*33
$GLGSV,1,1,04,66,31,096,40,79,35,209,47,80,46,291,42,81,50,031,44,1*7D
$GPRMC,184020.30,A,4000.4861671,N,10515.7622609,W,387.22,344.04,300816,0.0,E,A*2D
$GPGGA,184020.30,4000.4861671,N,10515.7622609,W,1,04,1.0,1594.347,M,0.000,M,0.0,*51
$GLGSA,A,3,66,79,80,81,,,,,,,,,15.2,3.4,14.8,2*33
$GLGSV,1,1,04,66,31,096,48,79,35,209,46,80,46,291,41,81,50,031,44,1*77
$GPRMC,184020.40,A,4000.4877419,N,10515.7615315,W,296.51,349.09,300816,0.0,E,A*28
$GPGGA,184020.40,4000.4877419,N,10515.7615315,W,1,04,1.0,1605.389,M,0.000,M,0.0,*58
$GLGSA,A,3,66,79,80,81,,,,,,,,,15.2,3.4,14.8,2*33
$GLGSV,1,1,04,66,31,096,47,79,35,209,46,80,46,291,43,81,50,031,50,1*7F
$GPRMC,184020.50,A,4000.4892234,N,10515.7609921,W,320.23,347.34,300816,0.0,E,A*22
$GPGGA,184020.50,4000.4892234,N,10515.7609921,W,1,04,1.0,1588.285,M,0.000,M,0.0,*50
$GLGSA,A,3,66,79,80,81,,,,,,,,,15.2,3.4,14.8,2*33
$GLGSV,1,1,04,66,31,096,44,79,35,209,46,80,46,291,46,81,50,031,47,1*7F
$GPRMC,184020.60,A,4000.4921191,N,10515.7635224,W,319.44,346.19,300816,0.0,E,A*20
$GPGGA,184020.60,4000.4921191,N,10515.7635224,W,1,04,1.0,1551.395,M,0.000,M,0.0,*53
$GLGSA,A,3,66,79,80,81,,,,,,,,,15.2,3.4,14.8,2*33
$GLGSV,1,1,04,66,31,096,45,79,35,209,44,80,46,291,44,81,50,031,50,1*78
$GPRMC,184020.70,A,4000.4917592,N,10515.7616218,W,292.88,346.25,300816,0.0,E,A*20
$GPGGA,184020.70,4000.4917592,N,10515.7616218,W,1,04,1.0,1542.950,M,0.000,M,0.0,*5F
$GLGSA,A,3,66,79,80,81,,,,,,,,,15.2,3.4,14.8,2*33
$GLGSV,1,1,04,66,31,096,45,79,35,209,46,80,46,291,42,81,50,031,48,1*75
$GPRMC,184020.80,A,4000.4934136,N,10515.7631759,W,310.50,344.97,300816,0.0,E,A*24
$GPGGA,184020.80,4000.4934136,N,10515.7631759,W,1,04,1.0,1534.477,M,0.000,M,0.0,*57
$GLGSA,A,3,66,79,80,81,,,,,,,,,15.2,3.4,14.8,2*33
$GLGSV,1,1,04,66,31,096,44,79,35,209,45,80,46,291,44,81,50,031,48,1*71
$GPRMC,184020.90,A,4000.4953253,N,10515.7640877,W,348.30,341.95,300816,0.0,E,A*2D
$GPGGA,184020.90,4000.4953253,N,10515.7640877,W,1,04,1.0,1516.589,M,0.000,M,0.0,*52
$GLGSA,A,3,66,79,80,81,,,,,,,,,15.2,3.4,14.8,2*33
$GLGSV,1,1,04,66,31,096,46,79,35,209,42,80,46,291,47,81,50,031,48,1*77
$GPRMC,184021.00,A,4000.4909783,N,10515.7624621,W,275.33,343.88,300816,0.0,E,A*2F
$GPGGA,184021.00,4000.4909783,N,10515.7624621,W,1,04,1.0,1553.728,M,0.000,M,0.0,*5A
$GLGSA,A,3,66,79,80,81,,,,,,,,,15.2,3.4,14.8,2*33
$GLGSV,1,1,04,66,31,096,48,79,35,209,41,80,46,291,40,81,50,031,47,1*72
$GPRMC,184021.10,A,4000.4842357,N,10515.7609409,W,357.60,343.00,300816,0.0,E,A*2D
$GPGGA,184021.10,4000.4842357,N,10515.7609409,W,1,04,1.0,1610.296,M,0.000,M,0.0,*5B
$GLGSA,A,3,66,79,80,81,,,,,,,,,15.2,3.4,14.8,2*33
$GLGSV,1,1,04,66,31,096,46,79,35,209,45,80,46,291,45,81,50,031,49,1*73
$GPRMC,184021.20,A,4000.4848439,N,10515.7602659,W,289.12,345.10,300816,0.0,E,A*27
$GPGGA,184021.20,4000.4848439,N,10515.7602659,W,1,04,1.0,1612.081,M,0.000,M,0.0,*57
$GLGSA,A,3,66,79,80,81,,,,,,,,,15.2,3.4,14.8,2*33
$GLGSV,1,1,04,66,31,096,41,79,35,209,44,80,46,291,40,81,50,031,44,1*7D
$GPRMC,184021.30,A,4000.4831569,N,10515.7592224,W,309.56,349.98,300816,0.0,E,A*2D
$GPGGA,184021.30,4000.4831569,N,10515.7592224,W,1,04,1.0,1619.987,M,0.000,M,0.0,*5C
$GLGSA,A,3,66,79,80,81,,,,,,,,,15.2,3.4,14.8,2*33
$GLGSV,1,1,04,66,31,096,42,79,35,209,46,80,46,291,42,81,50,031,48,1*72
$GPRMC,184021.40,A,4000.4851674,N,10515.7599697,W,310.88,343.72,300816,0.0,E,A*21
$GPGGA,184021.40,4000.4851674,N,10515.7599697,W,1,04,1.0,1599.791,M,0.000,M,0.0,*57
$GLGSA,A,3,66,79,80,81,,,,,,,,,15.2,3.4,14.8,2*33
$GLGSV,1,1,04,66,31,096,47,79,35,209,45,80,46,291,45,81,50,031,42,1*79
$GPRMC,184021.50,A,4000.4818559,N,10515.7584650,W,373.83,341.57,300816,0.0,E,A*2D
$GPGGA,184021.50,4000.4818559,N,10515.7584650,W,1,04,1.0,1628.964,M,0.000,M,0.0,*5D
$GLGSA,A,3,66,79,80,81,,,,,,,,,15.2,3.4,14.8,2*33
$GLGSV,1,1,04,66,31,096,43,79,35,209,46,80,46,291,45,81,50,031,51,1*7C
$GPRMC,184021.60,A,4000.4810953,N,10515.7588097,W,285.58,345.86,300816,0.0,E,A*27
$GPGGA,184021.60,4000.4810953,N,10515.7588097,W,1,04,1.0,1630.651,M,0.000,M,0.0,*51
$GLGSA,A,3,66,79,80,81,,,,,,,,,15.2,3.4,14.8,2*33
$GLGSV,1,1,04,66,31,096,42,79,35,209,47,80,46,291,44,81,50,031,46,1*7B
$GPRMC,184021.70,A,4000.4785248,N,10515.7589321,W,295.65,341.19,300816,0.0,E,A*26
$GPGGA,184021.70,4000.4785248,N,10515.7589321,W,1,04,1.0,1644.676,M,0.000,M,0.0,*5B
$GLGSA,A,3,66,79,80,81,,,,,,,,,15.2,3.4,14.8,2*33
$GLGSV,1,1,04,66,31,096,44,79,35,209,50,80,46,291,43,81,50,031,48,1*72
$GPRMC,184021.80,A,4000.4791143,N,10515.7596626,W,394.01,341.83,300816,0.0,E,A*29
$GPGGA,184021.80,4000.4791143,N,10515.7596626,W,1,04,1.0,1644.765,M,0.000,M,0.0,*56
$GLGSA,A,3,66,79,80,81,,,,,,,,,15.2,3.4,14.8,2*33
$GLGSV,1,1,04,66,31,096,46,79,35,209,49,80,46,291,43,81,50,031,47,1*77
$GPRMC,184021.90,A,4000.4770200,N,10515.7580808,W,283.94,345.95,300816,0.0,E,A*2E
$GPGGA,184021.90,4000.4770200,N,10515.7580808,W,1,04,1.0,1676.620,M,0.000,M,0.0,*58
$GLGSA,A,3,66,79,80,81,,,,,,,,,15.2,3.4,14.8,2*33
$GLGSV,1,1,04,66,31,096,48,79,35,209,46,80,46,291,42,81,50,031,47,1*77
$GPRMC,184022.00,A,4000.4714445,N,10515.7537197,W,232.59,343.44,300816,0.0,E,A*23
$GPGGA,184022.00,4000.4714445,N,10515.7537197,W,1,04,1.0,1731.008,M,0.000,M,0.0,*5A
$GLGSA,A,3,66,79,80,81,,,,,,,,,15.2,3.4,14.8,2*33
$GLGSV,1,1,04,66,31,096,48,79,35,209,46,80,46,291,44,81,50,031,48,1*7E
$GPRMC,184022.10,A,4000.4718811,N,10515.7531424,W,224.96,353.68,300816,0.0,E,A*23
$GPGGA,184022.10,4000.4718811,N,10515.7531424,W,1,04,1.0,1728.379,M,0.000,M,0.0,*5C
$GLGSA,A,3,66,79,80,81,,,,,,,,,15.2,3.4,14.9,2*32
$GLGSV,1,1,04,66,31,096,46,79,35,209,47,80,46,291,40,81,50,031,47,1*7A
$GPRMC,184022.20,A,4000.4747214,N,10515.7531752,W,289.86,342.41,300816,0.0,E,A*2A
$GPGGA,184022.20,4000.4747214,N,10515.7531752,W,1,04,1.0,1707.631,M,0.000,M,0.0,*5C
$GLGSA,A,3,66,79,80,81,,,,,,,,,15.2,3.4,14.9,2*32
$GLGSV,1,1,04,66,31,096,46,79,35,209,42,80,46,291,44,81,50,031,46,1*7A
$GPRMC,184022.30,A,4000.4754810,N,10515.7538744,W,297.79,347.29,300816,0.0,E,A*2D
$GPGGA,184022.30,4000.4754810,N,10515.7538744,W,1,04,1.0,1706.663,M,0.000,M,0.0,*59
$GLGSA,A,3,66,79,80,81,,,,,,,,,15.2,3.4,14.9,2*32
$GLGSV,1,1,04,66,31,096,47,79,35,209,46,80,46,291,42,81,50,031,48,1*77
$GPRMC,184022.40,A,4000.4758730,N,10515.7540707,W,278.08,343.02,300816,0.0,E,A*29
$GPGGA,184022.40,4000.4758730,N,10515.7540707,W,1,04,1.0,1720.532,M,0.000,M,0.0,*54
$GLGSA,A,3,66,79,80,81,,,,,,,,,15.2,3.4,14.9,2*32
$GLGSV,1,1,04,66,31,096,43,79,35,209,46,80,46,291,42,81,50,031,47,1*7C
$GPRMC,184022.50,A,4000.4826217,N,10515.7577711,W,365.74,341.56,300816,0.0,E,A*28
$GPGGA,184022.50,4000.4826217,N,10515.7577711,W,1,04,1.0,1671.141,M,0.000,M,0.0,*55
$GLGSA,A,3,66,79,80,81,,,,,,,,,15.2,3.4,14.9,2*32
$GLGSV,1,1,04,66,31,096,45,79,35,209,44,80,46,291,44,81,50,031,48,1*71
$GPRMC,184022.60,A,4000.4784886,N,10515.7539296,W,336.56,344.75,300816,0.0,E,A*2C
$GPGGA,184022.60,4000.4784886,N,10515.7539296,W,1,04,1.0,1691.071,M,0.000,M,0.0,*5F
$GLGSA,A,3,66,79,80,81,,,,,,,,,15.2,3.4,14.9,2*32
$GLGSV,1,1,04,66,31,096,44,79,35,209,46,80,46,291,44,81,50,031,48,1*72
$GPRMC,184022.70,A,4000.4727575,N,10515.7508582,W,275.79,343.02,300816,0.0,E,A*29
$GPGGA,184022.70,4000.4727575,N,10515.7508582,W,1,04,1.0,1740.973,M,0.000,M,0.0,*50
$GLGSA,A,3,66,79,80,81,,,,,,,,,15.3,3.4,14.9,2*33
$GLGSV,1,1,04,66,31,096,48,79,35,209,44,80,46,291,39,81,50,031,45,1*7B
$GPRMC,184022.80,A,4000.4817010,N,10515.7560647,W,257.26,346.87,300816,0.0,E,A*2A
$GPGGA,184022.80,4000.4817010,N,10515.7560647,W,1,04,1.0,1674.291,M,0.000,M,0.0,*50
$GLGSA,A,3,66,79,80,81,,,,,,,,,15.3,3.4,14.9,2*33
$GLGSV,1,1,04,66,31,096,44,79,35,209,46,80,46,291,44,81,50,031,48,1*72
$GPRMC,184022.90,A,4000.4825350,N,10515.7556477,W,367.39,344.19,300816,0.0,E,A*20
$GPGGA,184022.90,4000.4825350,N,10515.7556477,W,1,04,1.0,1657.120,M,0.000,M,0.0,*5B
$GLGSA,A,3,66,79,80,81,,,,,,,,,15.3,3.4,14.9,2*33
$GLGSV,1,1,04,66,31,096,46,79,35,209,44,80,46,291,42,81,50,031,48,1*74
$GPRMC,184023.00,A,4000.4776713,N,10515.7523849,W,289.08,344.32,300816,0.0,E,A*2B
$GPGGA,184023.00,4000.4776713,N,10515.7523849,W,1,04,1.0,1685.236,M,0.000,M,0.0,*51
$GLGSA,A,3,66,79,80,81,,,,,,,,,15.3,3.4,14.9,2*33
$GLGSV,1,1,04,66,31,096,48,79,35,209,44,80,46,291,45,81,50,031,48,1*7D
$GPRMC,184023.10,A,4000.4724484,N,10515.7493355,W,245.65,346.39,300816,0.0,E,A*2E
$GPGGA,184023.10,4000.4724484,N,10515.7493355,W,1,04,1.0,1710.539,M,0.000,M,0.0,*53
$GLGSA,A,3,66,79,80,81,,,,,,,,,15.3,3.4,14.9,2*33
$GLGSV,1,1,04,66,31,096,46,79,35,209,44,80,46,291,44,81,50,031,47,1*7D
$GPRMC,184023.20,A,4000.4767969,N,10515.7520155,W,290.45,346.71,300816,0.0,E,A*29
$GPGGA,184023.20,4000.4767969,N,10515.7520155,W,1,04,1.0,1675.147,M,0.000,M,0.0,*5D
$GLGSA,A,3,66,79,80,81,,,,,,,,,15.3,3.4,14.9,2*33
$GLGSV,1,1,04,66,31,096,49,79,35,209,44,80,46,291,44,81,50,031,49,1*7C
$GPRMC,184023.30,A,4000.4785179,N,10515.7536645,W,359.33,346.38,300816,0.0,E,A*24
$GPGGA,184023.30,4000.4785179,N,10515.7536645,W,1,04,1.0,1676.736,M,0.000,M,0.0,*5B
$GLGSA,A,3,66,79,80,81,,,,,,,,,15.3,3.4,14.9,2*33
$GLGSV,1,1,04,66,31,096,44,79,35,209,42,80,46,291,44,81,50,031,46,1*78
$GPRMC,184023.40,A,4000.4747064,N,10515.7527232,W,375.14,343.80,300816,0.0,E,A*29
$GPGGA,184023.40,4000.4747064,N,10515.7527232,W,1,04,1.0,1706.213,M,0.000,M,0.0,*5F
$GLGSA,A,3,66,79,80,81,,,,,,,,,15.3,3.4,14.9,2*33
$GLGSV,1,1,04,66,31,096,46,79,35,209,45,80,46,291,44,81,50,031,46,1*7D
$GPRMC,184023.50,A,4000.4761643,N,10515.7542702,W,301.07,348.17,300816,0.0,E,A*2E
$GPGGA,184023.50,4000.4761643,N,10515.7542702,W,1,04,1.0,1693.769,M,0.000,M,0.0,*59
$GLGSA,A,3,66,79,80,81,,,,,,,,,15.3,3.4,14.9,2*33
$GLGSV,1,1,04,66,31,096,47,79,35,209,46,80,46,291,43,81,50,031,48,1*76
$GPRMC,184023.60,A,4000.4762140,N,10515.7543287,W,292.43,342.47,300816,0.0,E,A*27
$GPGGA,184023.60,4000.4762140,N,10515.7543287,W,1,04,1.0,1709.262,M,0.000,M,0.0,*58
$GLGSA,A,3,66,79,80,81,,,,,,,,,15.3,3.4,14.9,2*33
$GLGSV,1,1,04,66,31,096,44,79,35,209,48,80,46,291,44,81,50,031,48,1*7C
$GPRMC,184023.70,A,4000.4713058,N,10515.7547239,W,286.14,346.76,300816,0.0,E,A*28
$GPGGA,184023.70,4000.4713058,N,10515.7547239,W,1,04,1.0,1760.894,M,0.000,M,0.0,*5A
$GLGSA,A,3,66,79,80,81,,,,,,,,,15.3,3.4,14.9,2*33
$GLGSV,1,1,04,66,31,096,45,79,35,209,46,80,46,291,42,81,50,031,51,1*7D
$GPRMC,184023.80,A,4000.4724991,N,10515.7584502,W,334.47,342.67,300816,0.0,E,A*25
$GPGGA,184023.80,4000.4724991,N,10515.7584502,W,1,04,1.0,1747.792,M,0.000,M,0.0,*51
$GLGSA,A,3,66,79,80,81,,,,,,,,,15.3,3.4,14.9,2*33
$GLGSV,1,1,04,66,31,096,44,79,35,209,46,80,46,291,45,81,50,031,48,1*73
$GPRMC,184023.90,A,4000.4709286,N,10515.7569279,W,335.38,344.55,300816,0.0,E,A*20
$GPGGA,184023.90,4000.4709286,N,10515.7569279,W,1,04,1.0,1761.981,M,0.000,M,0.0,*52
$GLGSA,A,3,66,79,80,81,,,,,,,,,15.3,3.4,14.9,2*33
$GLGSV,1,1,04,66,31,096,46,79,35,209,43,80,46,291,43,81,50,031,47,1*7D
$GPRMC,184024.00,A,4000.4705159,N,10515.7557318,W,330.00,346.90,300816,0.0,E,A*2D
$GPGGA,184024.00,4000.4705159,N,10515.7557318,W,1,04,1.0,1748.630,M,0.000,M,0.0,*54
$GLGSA,A,3,66,79,80,81,,,,,,,,,15.3,3.4,14.9,2*33
$GLGSV,1,1,04,66,31,096,45,79,35,209,47,80,46,291,43,81,50,031,48,1*75
$GPRMC,184024.10,A,4000.4723527,N,10515.7564776,W,341.58,344.44,300816,0.0,E,A*29
$GPGGA,184024.10,4000.4723527,N,10515.7564776,W,1,04,1.0,1738.206,M,0.000,M,0.0,*56
$GLGSA,A,3,66,79,80,81,,,,,,,,,15.3,3.4,14.9,2*33
$GLGSV,1,1,04,66,31,096,48,79,35,209,46,80,46,291,43,81,50,031,47,1*76
$GPRMC,184024.20,A,4000.4714645,N,10515.7536430,W,335.59,347.15,300816,0.0,E,A*2A
$GPGGA,184024.20,4000.4714645,N,10515.7536430,W,1,04,1.0,1746.564,M,0.000,M,0.0,*5A
$GLGSA,A,3,66,79,80,81,,,,,,,,,15.3,3.4,14.9,2*33
$GLGSV,1,1,04,66,31,096,46,79,35,209,46,80,46,291,44,81,50,031,46,1*7E
$GPRMC,184024.30,A,4000.4718867,N,10515.7556822,W,275.13,343.33,300816,0.0,E,A*2B
$GPGGA,184024.30,4000.4718867,N,10515.7556822,W,1,04,1.0,1747.964,M,0.000,M,0.0,*5D
$GLGSA,A,3,66,79,80,81,,,,,,,,,15.3,3.4,14.9,2*33
$GLGSV,1,1,04,66,31,096,46,79,35,209,45,80,46,291,45,81,50,031,48,1*72
$GPRMC,184024.40,A,4000.4730850,N,10515.7586999,W,351.21,340.34,300816,0.0,E,A*2C
$GPGGA,184024.40,4000.4730850,N,10515.7586999,W,1,04,1.0,1724.773,M,0.000,M,0.0,*55
$GLGSA,A,3,66,79,80,81,,,,,,,,,15.3,3.4,14.9,2*33
$GLGSV,1,1,04,66,31,096,50,79,35,209,44,80,46,291,43,81,50,031,51,1*7A
$GPRMC,184024.50,A,4000.4729517,N,10515.7593608,W,190.93,346.21,300816,0.0,E,A*2C
$GPGGA,184024.50,4000.4729517,N,10515.7593608,W,1,04,1.0,1718.515,M,0.000,M,0.0,*5C
$GLGSA,A,3,66,79,80,81,,,,,,,,,15.3,3.4,14.9,2*33
$GLGSV,1,1,04,66,31,096,41,79,35,209,47,80,46,291,44,81,50,031,45,1*7B
$GPRMC,184024.60,A,4000.4692060,N,10515.7567563,W,396.96,344.75,300816,0.0,E,A*2C
$GPGGA,184024.60,4000.4692060,N,10515.7567563,W,1,04,1.0,1756.275,M,0.000,M,0.0,*55
$GLGSA,A,3,66,79,80,81,,,,,,,,,15.3,3.4,14.9,2*33
$GLGSV,1,1,04,66,31,096,42,79,35,209,43,80,46,291,42,81,50,031,49,1*76
$GPRMC,184024.70,A,4000.4715091,N,10515.7564740,W,268.58,347.28,300816,0.0,E,A*24
$GPGGA,184024.70,4000.4715091,N,10515.7564740,W,1,04,1.0,1729.585,M,0.000,M,0.0,*54
$GLGSA,A,3,66,79,80,81,,,,,,,,,15.3,3.4,14.9,2*33
$GLGSV,1,1,04,66,31,096,44,79,35,209,47,80,46,291,43,81,50,031,50,1*7D
$GPRMC,184024.80,A,4000.4747332,N,10515.7561731,W,360.35,345.05,300816,0.0,E,A*2A
$GPGGA,184024.80,4000.4747332,N,10515.7561731,W,1,04,1.0,1713.189,M,0.000,M,0.0,*54
$GLGSA,A,3,66,79,80,81,,,,,,,,,15.3,3.4,14.9,2*33
$GLGSV,1,1,04,66,31,096,46,79,35,209,45,80,46,291,43,81,50,031,44,1*78
$GPRMC,184024.90,A,4000.4705289,N,10515.7514292,W,251.43,343.66,300816,0.0,E,A*23
$GPGGA,184024.90,4000.4705289,N,10515.7514292,W,1,04,1.0,1743.777,M,0.000,M,0.0,*5E
$GLGSA,A,3,66,79,80,81,,,,,,,,,15.3,3.4,14.9,2*33
$GLGSV,1,1,04,66,31,096,46,79,35,209,40,80,46,291,45,81,50,031,42,1*7D
$GPRMC,184025.00,A,4000.4692039,N,10515.7515187,W,306.09,343.75,300816,0.0,E,A*24
$GPGGA,184025.00,4000.4692039,N,10515.7515187,W,1,04,1.0,1750.685,M,0.000,M,0.0,*58
$GLGSA,A,3,66,79,80,81,,,,,,,,,15.3,3.4,14.9,2*33
$GLGSV,1,1,04,66,31,096,47,79,35,209,41,80,46,291,45,81,50,031,50,1*7E
$GPRMC,184025.10,A,4000.4750646,N,10515.7544937,W,334.36,342.99,300816,0.0,E,A*2D
$GPGGA,184025.10,4000.4750646,N,10515.7544937,W,1,04,1.0,1700.940,M,0.000,M,0.0,*5C
$GLGSA,A,3,66,79,80,81,,,,,,,,,15.3,3.4,14.9,2*33
$GLGSV,1,1,04,66,31,096,46,79,35,209,49,80,46,291,42,81,50,031,47,1*76
$GPRMC,184025.20,A,4000.4757510,N,10515.7555470,W,317.86,344.69,300816,0.0,E,A*24
$GPGGA,184025.20,4000.4757510,N,10515.7555470,W,1,04,1.0,1685.703,M,0.000,M,0.0,*53
$GLGSA,A,3,66,79,80,81,,,,,,,,,15.3,3.4,14.9,2*33
$GLGSV,1,1,04,66,31,096,44,79,35,209,46,80,46,291,38,81,50,031,47,1*76
$GPRMC,184025.30,A,4000.4762907,N,10515.7545397,W,315.99,340.95,300816,0.0,E,A*2D
$GPGGA,184025.30,4000.4762907,N,10515.7545397,W,1,04,1.0,1691.919,M,0.000,M,0.0,*51
$GLGSA,A,3,66,79,80,81,,,,,,,,,15.3,3.4,14.9,2*33
$GLGSV,1,1,04,66,31,096,43,79,35,209,43,80,46,291,40,81,50,031,47,1*7B
$GPRMC,184025.40,A,4000.4783158,N,10515.7580674,W,316.62,343.16,300816,0.0,E,A*29
$GPGGA,184025.40,4000.4783158,N,10515.7580674,W,1,04,1.0,1676.326,M,0.000,M,0.0,*55
$GLGSA,A,3,66,79,80,81,,,,,,,,,15.3,3.4,14.9,2*33
$GLGSV,1,1,04,66,31,096,45,79,35,209,43,80,46,291,42,81,50,031,46,1*7E
$GPRMC,184025.50,A,4000.4809373,N,10515.7605489,W,152.29,0.20,300816,0.0,E,A*2C
$GPGGA,184025.50,4000.4809373,N,10515.7605489,W,1,04,1.0,1674.410,M,0.000,M,0.0,*5C
$GLGSA,A,3,66,79,80,81,,,,,,,,,15.3,3.4,14.9,2*33
$GLGSV,1,1,04,66,31,096,44,79,35,209,46,80,46,291,38,81,50,031,50,1*70
$GPRMC,184025.60,A,4000.4756975,N,10515.7573205,W,307.72,345.12,300816,0.0,E,A*29
$GPGGA,184025.60,4000.4756975,N,10515.7573205,W,1,04,1.0,1725.646,M,0.000,M,0.0,*52
$GLGSA,A,3,66,79,80,81,,,,,,,,,15.3,3.4,14.9,2*33
$GLGSV,1,1,04,66,31,096,44,79,35,209,46,80,46,291,44,81,50,031,47,1*7D
$GPRMC,184025.70,A,4000.4721045,N,10515.7566030,W,294.69,343.63,300816,0.0,E,A*23
$GPGGA,184025.70,4000.4721045,N,10515.7566030,W,1,04,1.0,1739.959,M,0.000,M,0.0,*55
$GLGSA,A,3,66,79,80,81,,,,,,,,,15.3,3.4,14.9,2*33
$GLGSV,1,1,04,66,31,096,49,79,35,209,46,80,46,291,43,81,50,031,48,1*78
$GPRMC,184025.80,A,4000.4655911,N,10515.7528222,W,396.75,342.98,300816,0.0,E,A*26
$GPGGA,184025.80,4000.4655911,N,10515.7528222,W,1,04,1.0,1785.917,M,0.000,M,0.0,*56
$GLGSA,A,3,66,79,80,81,,,,,,,,,15.3,3.4,14.9,2*33
$GLGSV,1,1,04,66,31,096,44,79,35,209,46,80,46,291,40,81,50,031,49,1*77
$GPRMC,184025.90,A,4000.4618873,N,10515.7496587,W,308.56,346.20,300816,0.0,E,A*26
$GPGGA,184025.90,4000.4618873,N,10515.7496587,W,1,04,1.0,1812.344,M,0.000,M,0.0,*5A
$GLGSA,A,3,66,79,80,81,,,,,,,,,15.3,3.4,14.9,2*33
$GLGSV,1,1,04,66,31,096,46,79,35,209,44,80,46,291,38,81,50,031,46,1*77
$GPRMC,184026.00,A,4000.4636345,N,10515.7485470,W,317.50,348.03,300816,0.0,E,A*22
$GPGGA,184026.00,4000.4636345,N,10515.7485470,W,1,04,1.0,1810.331,M,0.000,M,0.0,*59
$GLGSA,A,3,66,79,80,81,,,,,,,,,15.3,3.4,14.9,2*33
$GLGSV,1,1,04,66,31,096,45,79,35,209,44,80,46,291,44,81,50,031,49,1*70
$GPRMC,184026.10,A,4000.4644520,N,10515.7510496,W,330.46,343.54,300816,0.0,E,A*2D
$GPGGA,184026.10,4000.4644520,N,10515.7510496,W,1,04,1.0,1784.481,M,0.000,M,0.0,*53
$GLGSA,A,3,66,79,80,81,,,,,,,,,15.3,3.4,14.9,2*33
$GLGSV,1,1,04,66,31,096,44,79,35,209,46,80,46,291,42,81,50,031,48,1*74
$GPRMC,184026.20,A,4000.4677427,N,10515.7532906,W,208.81,350.40,300816,0.0,E,A*2A
$GPGGA,184026.20,4000.4677427,N,10515.7532906,W,1,04,1.0,1759.554,M,0.000,M,0.0,*5B
$GLGSA,A,3,66,79,80,81,,,,,,,,,15.3,3.4,14.9,2*33
$GLGSV,1,1,04,66,31,096,41,79,35,209,44,80,46,291,42,81,50,031,48,1*73
$GPRMC,184026.30,A,4000.4684451,N,10515.7531711,W,275.52,348.41,300816,0.0,E,A*21
$GPGGA,184026.30,4000.4684451,N,10515.7531711,W,1,04,1.0,1756.744,M,0.000,M,0.0,*50
$GLGSA,A,3,66,79,80,81,,,,,,,,,15.3,3.4,14.9,2*33
$GLGSV,1,1,04,66,31,096,46,79,35,209,48,80,46,291,42,81,50,031,51,1*70
$GPRMC,184026.40,A,4000.4741372,N,10515.7588737,W,343.63,344.38,300816,0.0,E,A*2A
$GPGGA,184026.40,4000.4741372,N,10515.7588737,W,1,04,1.0,1689.387,M,0.000,M,0.0,*57
$GLGSA,A,3,66,79,80,81,,,,,,,,,15.3,3.4,14.9,2*33
$GLGSV,1,1,04,66,31,096,45,79,35,209,41,80,46,291,47,81,50,031,49,1*76
$GPRMC,184026.50,A,4000.4782681,N,10515.7594444,W,279.32,340.17,300816,0.0,E,A*22
$GPGGA,184026.50,4000.4782681,N,10515.7594444,W,1,04,1.0,1666.582,M,0.000,M,0.0,*58
$GLGSA,A,3,66,79,80,81,,,,,,,,,15.3,3.4,14.9,2*33
$GLGSV,1,1,04,66,31,096,43,79,35,209,48,80,46,291,40,81,50,031,50,1*76
$GPRMC,184026.60,A,4000.4789037,N,10515.7595555,W,289.10,343.58,300816,0.0,E,A*26
$GPGGA,184026.60,4000.4789037,N,10515.7595555,W,1,04,1.0,1668.075,M,0.000,M,0.0,*58
$GLGSA,A,3,66,79,80,81,,,,,,,,,15.3,3.4,15.0,2*3B
$GLGSV,1,1,04,66,31,096,44,79,35,209,46,80,46,291,42,81,50,031,47,1*7B
$GPRMC,184026.70,A,4000.4710286,N,10515.7533395,W,306.37,340.83,300816,0.0,E,A*2F
$GPGGA,184026.70,4000.4710286,N,10515.7533395,W,1,04,1.0,1723.568,M,0.000,M,0.0,*50
$GLGSA,A,3,66,79,80,81,,,,,,,,,15.3,3.4,15.0,2*3B
$GLGSV,1,1,04,66,31,096,41,79,35,209,45,80,46,291,46,81,50,031,49,1*77
$GPRMC,184026.80,A,4000.4698238,N,10515.7526822,W,243.02,350.38,300816,0.0,E,A*20
$GPGGA,184026.80,4000.4698238,N,10515.7526822,W,1,04,1.0,1741.714,M,0.000,M,0.0,*55
$GLGSA,A,3,66,79,80,81,,,,,,,,,15.3,3.4,15.0,2*3B
$GLGSV,1,1,04,66,31,096,45,79,35,209,43,80,46,291,42,81,50,031,48,1*70
$GPRMC,184026.90,A,4000.4719734,N,10515.7542417,W,274.07,346.18,300816,0.0,E,A*2C
$GPGGA,184026.90,4000.4719734,N,10515.7542417,W,1,04,1.0,1721.627,M,0.000,M,0.0,*5A
$GLGSA,A,3,66,79,80,81,,,,,,,,,15.3,3.4,15.0,2*3B
$GLGSV,1,1,04,66,31,096,46,79,35,209,46,80,46,291,44,81,50,031,47,1*7F
$GPRMC,184027.00,A,4000.4680822,N,10515.7518918,W,355.68,345.93,300816,0.0,E,A*2B
$GPGGA,184027.00,4000.4680822,N,10515.7518918,W,1,04,1.0,1758.940,M,0.000,M,0.0,*56
$GLGSA,A,3,66,79,80,81,,,,,,,,,15.3,3.4,15.0,2*3B
$GLGSV,1,1,04,66,31,096,46,79,35,209,46,80,46,291,44,81,50,031,50,1*79
$GPRMC,184027.10,A,4000.4702530,N,10515.7529372,W,319.57,342.89,300816,0.0,E,A*23
$GPGGA,184027.10,4000.4702530,N,10515.7529372,W,1,04,1.0,1745.283,M,0.000,M,0.0,*5E
$GLGSA,A,3,66,79,80,81,,,,,,,,,15.4,3.4,15.0,2*3C
$GLGSV,1,1,04,66,31,096,43,79,35,209,42,80,46,291,42,81,50,031,48,1*77
$GPRMC,184027.20,A,4000.4688248,N,10515.7511130,W,362.56,343.06,300816,0.0,E,A*2F
$GPGGA,184027.20,4000.4688248,N,10515.7511130,W,1,04,1.0,1771.850,M,0.000,M,0.0,*5A
$GLGSA,A,3,66,79,80,81,,,,,,,,,15.4,3.4,15.0,2*3C
$GLGSV,1,1,04,66,31,096,48,79,35,209,44,80,46,291,43,81,50,031,47,1*74
$GPRMC,184027.30,A,4000.4704462,N,10515.7525419,W,289.01,348.37,300816,0.0,E,A*23
$GPGGA,184027.30,4000.4704462,N,10515.7525419,W,1,04,1.0,1749.133,M,0.000,M,0.0,*5E
$GLGSA,A,3,66,79,80,81,,,,,,,,,15.4,3.4,15.0,2*3C
$GLGSV,1,1,04,66,31,096,43,79,35,209,44,80,46,291,39,81,50,031,44,1*71
$GPRMC,184027.40,A,4000.4720252,N,10515.7533394,W,338.92,345.59,300816,0.0,E,A*26
$GPGGA,184027.40,4000.4720252,N,10515.7533394,W,1,04,1.0,1736.271,M,0.000,M,0.0,*52
$GLGSA,A,3,66,79,80,81,,,,,,,,,15.4,3.4,15.0,2*3C
$GLGSV,1,1,04,66,31,096,46,79,35,209,44,80,46,291,42,81,50,031,46,1*7A
$GPRMC,184027.50,A,4000.4735308,N,10515.7534097,W,315.21,346.08,300816,0.0,E,A*2A
$GPGGA,184027.50,4000.4735308,N,10515.7534097,W,1,04,1.0,1728.390,M,0.000,M,0.0,*5F
$GLGSA,A,3,66,79,80,81,,,,,,,,,15.4,3.4,15.0,2*3C
$GLGSV,1,1,04,66,31,096,43,79,35,209,45,80,46,291,38,81,50,031,47,1*72
$GPRMC,184027.60,A,4000.4753765,N,10515.7548737,W,314.25,344.36,300816,0.0,E,A*2A
$GPGGA,184027.60,4000.4753765,N,10515.7548737,W,1,04,1.0,1694.730,M,0.000,M,0.0,*5D
$GLGSA,A,3,66,79,80,81,,,,,,,,,15.4,3.4,15.0,2*3C
$GLGSV,1,1,04,66,31,096,44,79,35,209,48,80,46,291,45,81,50,031,46,1*73
$GPRMC,184027.70,A,4000.4770464,N,10515.7577391,W,337.70,346.05,300816,0.0,E,A*2F
$GPGGA,184027.70,4000.4770464,N,10515.7577391,W,1,04,1.0,1689.543,M,0.000,M,0.0,*51
$GLGSA,A,3,66,79,80,81,,,,,,,,,15.4,3.4,15.0,2*3C
$GLGSV,1,1,04,66,31,096,48,79,35,209,46,80,46,291,42,81,50,031,48,1*78
$GPRMC,184027.80,A,4000.4743097,N,10515.7544406,W,240.24,348.51,300816,0.0,E,A*2E
$GPGGA,184027.80,4000.4743097,N,10515.7544406,W,1,04,1.0,1716.638,M,0.000,M,0.0,*57
$GLGSA,A,3,66,79,80,81,,,,,,,,,15.4,3.4,15.0,2*3C
$GLGSV,1,1,04,66,31,096,46,79,35,209,45,80,46,291,44,81,50,031,44,1*7F
$GPRMC,184027.90,A,4000.4729330,N,10515.7545359,W,326.34,345.11,300816,0.0,E,A*28
$GPGGA,184027.90,4000.4729330,N,10515.7545359,W,1,04,1.0,1709.204,M,0.000,M,0.0,*5D
$GLGSA,A,3,66,79,80,81,,,,,,,,,15.4,3.4,15.0,2*3C
$GLGSV,1,1,04,66,31,096,44,79,35,209,46,80,46,291,42,81,50,031,45,1*79
$GPRMC,184028.00,A,4000.4704699,N,10515.7526568,W,346.73,344.31,300816,0.0,E,A*20
$GPGGA,184028.00,4000.4704699,N,10515.7526568,W,1,04,1.0,1740.505,M,0.000,M,0.0,*58
$GLGSA,A,3,66,79,80,81,,,,,,,,,15.4,3.4,15.0,2*3C
$GLGSV,1,1,04,66,31,096,46,79,35,209,44,80,46,291,42,81,50,031,45,1*79
$GPRMC,184028.10,A,4000.4748038,N,10515.7533971,W,305.03,343.98,300816,0.0,E,A*20
$GPGGA,184028.10,4000.4748038,N,10515.7533971,W,1,04,1.0,1707.219,M,0.000,M,0.0,*55
$GLGSA,A,3,66,79,80,81,,,,,,,,,15.4,3.4,15.0,2*3C
$GLGSV,1,1,04,66,31,096,47,79,35,209,42,80,46,291,45,81,50,031,45,1*79
$GPRMC,184028.20,A,4000.4789253,N,10515.7556067,W,313.45,345.38,300816,0.0,E,A*25
$GPGGA,184028.20,4000.4789253,N,10515.7556067,W,1,04,1.0,1682.215,M,0.000,M,0.0,*59
$GLGSA,A,3,66,79,80,81,,,,,,,,,15.4,3.4,15.0,2*3C
$GLGSV,1,1,04,66,31,096,45,79,35,209,44,80,46,291,48,81,50,031,47,1*72
$GPRMC,184028.30,A,4000.4749556,N,10515.7530652,W,276.05,346.59,300816,0.0,E,A*28
$GPGGA,184028.30,4000.4749556,N,10515.7530652,W,1,04,1.0,1712.756,M,0.000,M,0.0,*5C
$GLGSA,A,3,66,79,80,81,,,,,,,,,15.4,3.4,15.0,2*3C
$GLGSV,1,1,04,66,31,096,47,79,35,209,41,80,46,291,42,81,50,031,50,1*79
$GPRMC,184028.40,A,4000.4736459,N,10515.7534895,W,320.06,342.05,300816,0.0,E,A*24
$GPGGA,184028.40,4000.4736459,N,10515.7534895,W,1,04,1.0,1716.406,M,0.000,M,0.0,*5E
$GLGSA,A,3,66,79,80,81,,,,,,,,,15.4,3.4,15.0,2*3C
$GLGSV,1,1,04,66,31,096,48,79,35,209,46,80,46,291,43,81,50,031,46,1*77
$GPRMC,184028.50,A,4000.4750959,N,10515.7519821,W,344.03,341.58,300816,0.0,E,A*24
$GPGGA,184028.50,4000.4750959,N,10515.7519821,W,1,04,1.0,1704.752,M,0.000,M,0.0,*53
$GLGSA,A,3,66,79,80,81,,,,,,,,,15.4,3.4,15.0,2*3C
$GLGSV,1,1,04,66,31,096,45,79,35,209,45,80,46,291,41,81,50,031,51,1*7D
$GPRMC,184028.60,A,4000.4733449,N,10515.7516081,W,330.65,342.46,300816,0.0,E,A*2C
$GPGGA,184028.60,4000.4733449,N,10515.7516081,W,1,04,1.0,1714.965,M,0.000,M,0.0,*5F
$GLGSA,A,3,66,79,80,81,,,,,,,,,15.4,3.4,15.0,2*3C
$GLGSV,1,1,04,66,31,096,47,79,35,209,43,80,46,291,44,81,50,031,47,1*7B
$GPRMC,184028.70,A,4000.4730378,N,10515.7531724,W,258.04,345.98,300816,0.0,E,A*2A
$GPGGA,184028.70,4000.4730378,N,10515.7531724,W,1,04,1.0,1719.543,M,0.000,M,0.0,*50
$GLGSA,A,3,66,79,80,81,,,,,,,,,15.4,3.4,15.0,2*3C
$GLGSV,1,1,04,66,31,096,46,79,35,209,47,80,46,291,44,81,50,031,45,1*7C
$GPRMC,184028.80,A,4000.4700039,N,10515.7517584,W,299.82,348.06,300816,0.0,E,A*25
$GPGGA,184028.80,4000.4700039,N,10515.7517584,W,1,04,1.0,1717.158,M,0.000,M,0.0,*56
$GLGSA,A,3,66,79,80,81,,,,,,,,,15.4,3.4,15.0,2*3C
$GLGSV,1,1,04,66,31,096,50,79,35,209,44,80,46,291,41,81,50,031,46,1*7E
$GPRMC,184028.90,A,4000.4747671,N,10515.7552260,W,354.86,339.93,300816,0.0,E,A*2F
$GPGGA,184028.90,4000.4747671,N,10515.7552260,W,1,04,1.0,1666.784,M,0.000,M,0.0,*52
$GLGSA,A,3,66,79,80,81,,,,,,,,,15.4,3.4,15.0,2*3C
$GLGSV,1,1,04,66,31,096,43,79,35,209,44,80,46,291,43,81,50,031,49,1*71
$GPRMC,184029.00,A,4000.4714129,N,10515.7531106,W,301.16,343.43,300816,0.0,E,A*24
$GPGGA,184029.00,4000.4714129,N,10515.7531106,W,1,04,1.0,1703.399,M,0.000,M,0.0,*5A
$GLGSA,A,3,66,79,80,81,,,,,,,,,15.4,3.4,15.0,2*3C
$GLGSV,1,1,04,66,31,096,45,79,35,209,42,80,46,291,45,81,50,031,48,1*76
$GPRMC,184029.10,A,4000.4722791,N,10515.7536455,W,308.95,345.40,300816,0.0,E,A*26
$GPGGA,184029.10,4000.4722791,N,10515.7536455,W,1,04,1.0,1710.275,M,0.000,M,0.0,*5E
$GLGSA,A,3,66,79,80,81,,,,,,,,,15.4,3.4,15.0,2*3C
$GLGSV,1,1,04,66,31,096,45,79,35,209,44,80,46,290,44,81,50,031,43,1*7B
$GPRMC,184029.20,A,4000.4728430,N,10515.7545867,W,281.17,346.82,300816,0.0,E,A*29
$GPGGA,184029.20,4000.4728430,N,10515.7545867,W,1,04,1.0,1683.333,M,0.000,M,0.0,*5E
$GLGSA,A,3,66,79,80,81,,,,,,,,,15.4,3.4,15.0,2*3C
$GLGSV,1,1,04,66,31,096,44,79,35,209,42,80,46,290,42,81,50,031,50,1*78
$GPRMC,184029.30,A,4000.4716104,N,10515.7558344,W,370.33,342.63,300816,0.0,E,A*23
$GPGGA,184029.30,4000.4716104,N,10515.7558344,W,1,04,1.0,1695.358,M,0.000,M,0.0,*5C
$GLGSA,A,3,66,79,80,81,,,,,,,,,15.4,3.4,15.0,2*3C
$GLGSV,1,1,04,66,31,096,48,79,35,209,46,80,46,290,41,81,50,031,48,1*7A
$GPRMC,184029.40,A,4000.4781677,N,10515.7600304,W,357.01,345.50,300816,0.0,E,A*20
$GPGGA,184029.40,4000.4781677,N,10515.7600304,W,1,04,1.0,1652.508,M,0.000,M,0.0,*54
$GLGSA,A,3,66,79,80,81,,,,,,,,,15.4,3.4,15.0,2*3C
$GLGSV,1,1,04,66,31,096,46,79,35,209,43,80,46,290,43,81,50,031,46,1*7D
$GPRMC,184029.50,A,4000.4798551,N,10515.7603684,W,276.45,344.30,300816,0.0,E,A*25
$GPGGA,184029.50,4000.4798551,N,10515.7603684,W,1,04,1.0,1633.038,M,0.000,M,0.0,*55
$GLGSA,A,3,66,79,80,81,,,,,,,,,15.4,3.4,15.0,2*3C
$GLGSV,1,1,04,66,31,096,47,79,35,209,45,80,46,290,41,81,50,031,49,1*77
$GPRMC,184029.60,A,4000.4757421,N,10515.7564905,W,414.82,344.70,300816,0.0,E,A*2A
$GPGGA,184029.60,4000.4757421,N,10515.7564905,W,1,04,1.0,1675.524,M,0.000,M,0.0,*5D
$GLGSA,A,3,66,79,80,81,,,,,,,,,15.4,3.4,15.0,2*3C
$GLGSV,1,1,04,66,31,096,46,79,35,209,45,80,46,290,44,81,50,031,43,1*79
$GPRMC,184029.70,A,4000.4778202,N,10515.7593076,W,310.64,346.28,300816,0.0,E,A*20
$GPGGA,184029.70,4000.4778202,N,10515.7593076,W,1,04,1.0,1629.279,M,0.000,M,0.0,*55
$GLGSA,A,3,66,79,80,81,,,,,,,,,15.4,3.4,15.0,2*3C
$GLGSV,1,1,04,66,31,096,45,79,35,209,45,80,46,290,40,81,50,031,46,1*7B
$GPRMC,184029.80,A,4000.4837795,N,10515.7619215,W,351.55,346.89,300816,0.0,E,A*2A
$GPGGA,184029.80,4000.4837795,N,10515.7619215,W,1,04,1.0,1578.883,M,0.000,M,0.0,*5B
$GLGSA,A,3,66,79,80,81,,,,,,,,,15.4,3.4,15.0,2*3C
$GLGSV,1,1,04,66,31,096,46,79,35,209,44,80,46,290,45,81,50,031,46,1*7C
$GPRMC,184029.90,A,4000.4768928,N,10515.7575502,W,263.72,344.09,300816,0.0,E,A*21
$GPGGA,184029.90,4000.4768928,N,10515.7575502,W,1,04,1.0,1666.963,M,0.000,M,0.0,*5C
$GLGSA,A,3,66,79,80,81,,,,,,,,,15.4,3.4,15.0,2*3C
$GLGSV,1,1,04,66,31,096,44,79,35,209,46,80,46,290,45,81,50,031,49,1*73
$GPRMC,184030.00,A,4000.4747565,N,10515.7580897,W,200.20,350.83,300816,0.0,E,A*26
$GPGGA,184030.00,4000.4747565,N,10515.7580897,W,1,04,1.0,1682.858,M,0.000,M,0.0,*5D
$GLGSA,A,3,66,79,80,81,,,,,,,,,15.4,3.4,15.0,2*3C
$GLGSV,1,1,04,66,31,096,47,79,35,209,43,80,46,290,42,81,50,031,51,1*7B
$GPRMC,184030.10,A,4000.4776249,N,10515.7604623,W,359.94,341.54,300816,0.0,E,A*2A
$GPGGA,184030.10,4000.4776249,N,10515.7604623,W,1,04,1.0,1656.614,M,0.000,M,0.0,*56
$GLGSA,A,3,66,79,80,81,,,,,,,,,15.4,3.5,15.0,2*3D
$GLGSV,1,1,04,66,31,096,46,79,35,209,45,80,46,290,44,81,50,031,47,1*7D
$GPRMC,184030.20,A,4000.4759440,N,10515.7594432,W,357.98,344.59,300816,0.0,E,A*29
$GPGGA,184030.20,4000.4759440,N,10515.7594432,W,1,04,1.0,1665.921,M,0.000,M,0.0,*56
$GLGSA,A,3,66,79,80,81,,,,,,,,,15.4,3.5,15.0,2*3D
$GLGSV,1,1,04,66,31,096,46,79,35,209,45,80,46,290,45,81,50,031,50,1*7A
$GPRMC,184030.30,A,4000.4737147,N,10515.7580602,W,297.85,343.42,300816,0.0,E,A*2A
$GPGGA,184030.30,4000.4737147,N,10515.7580602,W,1,04,1.0,1672.962,M,0.000,M,0.0,*58
$GLGSA,A,3,66,79,80,81,,,,,,,,,15.4,3.5,15.0,2*3D
$GLGSV,1,1,04,66,31,096,44,79,35,209,42,80,46,290,46,81,50,031,45,1*78
$GPRMC,184030.40,A,4000.4758721,N,10515.7580380,W,381.55,345.69,300816,0.0,E,A*29
$GPGGA,184030.40,4000.4758721,N,10515.7580380,W,1,04,1.0,1644.432,M,0.000,M,0.0,*52
$GLGSA,A,3,66,79,80,81,,,,,,,,,15.4,3.5,15.0,2*3D
$GLGSV,1,1,04,66,31,096,45,79,35,209,44,80,46,290,43,81,50,031,48,1*77
$GPRMC,184030.50,A,4000.4713894,N,10515.7529133,W,307.64,343.34,300816,0.0,E,A*2D
$GPGGA,184030.50,4000.4713894,N,10515.7529133,W,1,04,1.0,1698.130,M,0.000,M,0.0,*52
$GLGSA,A,3,66,79,80,81,,,,,,,,,15.4,3.5,15.0,2*3D
$GLGSV,1,1,04,66,31,096,44,79,35,209,46,80,46,290,42,81,50,031,46,1*7B
